{
"type": "FeatureCollection",
"name": "BARRAGESMAROC",
"crs": { "type": "name", "properties": { "name": "urn:ogc:def:crs:ESRI::104261" } },
"features": [
{ "type": "Feature", "properties": { "OBJECTID": 1, "objectid_1": 0.0, "nom_barrag": "Kasbat Tadla", "nom_oued": "Oum Er Rbia", "capacite_i": 0.10000000149, "hauteur": 12.0, "annee_mise": 1931.0, "id_pays": 248.0 }, "geometry": { "type": "Point", "coordinates": [ -6.242037141596719, 32.572881789389456 ] } },
{ "type": "Feature", "properties": { "OBJECTID": 2, "objectid_1": 0.0, "nom_barrag": "Sidi Said Maachou", "nom_oued": "Oum Er Rbia", "capacite_i": 2.0, "hauteur": 29.0, "annee_mise": 1929.0, "id_pays": 248.0 }, "geometry": { "type": "Point", "coordinates": [ -8.108381010976988, 33.145342800478694 ] } },
{ "type": "Feature", "properties": { "OBJECTID": 3, "objectid_1": 0.0, "nom_barrag": "Mellah", "nom_oued": "Mellah", "capacite_i": 8.8000001907299996, "hauteur": 33.0, "annee_mise": 1931.0, "id_pays": 248.0 }, "geometry": { "type": "Point", "coordinates": [ -7.34153769664669, 33.509792073571049 ] } },
{ "type": "Feature", "properties": { "OBJECTID": 4, "objectid_1": 0.0, "nom_barrag": "Ali Thelat", "nom_oued": "Lao", "capacite_i": 30.0, "hauteur": 36.0, "annee_mise": 1935.0, "id_pays": 248.0 }, "geometry": { "type": "Point", "coordinates": [ -5.292598038961505, 35.247952920538985 ] } },
{ "type": "Feature", "properties": { "OBJECTID": 5, "objectid_1": 0.0, "nom_barrag": "El Kansra", "nom_oued": "Beht", "capacite_i": 266.0, "hauteur": 68.0, "annee_mise": 1935.0, "id_pays": 248.0 }, "geometry": { "type": "Point", "coordinates": [ -5.909361243807574, 34.044427193770183 ] } },
{ "type": "Feature", "properties": { "OBJECTID": 6, "objectid_1": 0.0, "nom_barrag": "Lalla Takerkoust", "nom_oued": "N'fis", "capacite_i": 69.0, "hauteur": 71.0, "annee_mise": 1935.0, "id_pays": 248.0 }, "geometry": { "type": "Point", "coordinates": [ -8.137448609568697, 31.357524374838281 ] } },
{ "type": "Feature", "properties": { "OBJECTID": 7, "objectid_1": 0.0, "nom_barrag": "Imfout", "nom_oued": "Oum Er Rbia", "capacite_i": 27.0, "hauteur": 50.0, "annee_mise": 1944.0, "id_pays": 248.0 }, "geometry": { "type": "Point", "coordinates": [ -7.928091088549609, 32.72805280743659 ] } },
{ "type": "Feature", "properties": { "OBJECTID": 8, "objectid_1": 0.0, "nom_barrag": "Daourat", "nom_oued": "Oum Er Rbia", "capacite_i": 9.5, "hauteur": 40.0, "annee_mise": 1950.0, "id_pays": 248.0 }, "geometry": { "type": "Point", "coordinates": [ -8.065042516727457, 32.938561783097974 ] } },
{ "type": "Feature", "properties": { "OBJECTID": 9, "objectid_1": 0.0, "nom_barrag": "Zemrane", "nom_oued": "Zemrane", "capacite_i": 0.60000002383999995, "hauteur": 20.0, "annee_mise": 1950.0, "id_pays": 248.0 }, "geometry": { "type": "Point", "coordinates": [ -6.831150010975517, 32.99875001773627 ] } },
{ "type": "Feature", "properties": { "OBJECTID": 10, "objectid_1": 0.0, "nom_barrag": "Bin El Oiudane", "nom_oued": "El  Abid", "capacite_i": 1384.0, "hauteur": 133.0, "annee_mise": 1953.0, "id_pays": 248.0 }, "geometry": { "type": "Point", "coordinates": [ -6.465638888246385, 32.109429037386242 ] } },
{ "type": "Feature", "properties": { "OBJECTID": 11, "objectid_1": 0.0, "nom_barrag": "Ait Ourda", "nom_oued": "El  Abid", "capacite_i": 4.0, "hauteur": 43.0, "annee_mise": 1953.0, "id_pays": 248.0 }, "geometry": { "type": "Point", "coordinates": [ -6.511074302825624, 32.111502087470676 ] } },
{ "type": "Feature", "properties": { "OBJECTID": 12, "objectid_1": 0.0, "nom_barrag": "Mechraa Hammadi", "nom_oued": "Moulouya", "capacite_i": 12.0, "hauteur": 57.0, "annee_mise": 1955.0, "id_pays": 248.0 }, "geometry": { "type": "Point", "coordinates": [ -2.813266257752857, 34.735561130596587 ] } },
{ "type": "Feature", "properties": { "OBJECTID": 13, "objectid_1": 0.0, "nom_barrag": "Nakhla", "nom_oued": "Nakhla", "capacite_i": 5.6999998092700004, "hauteur": 46.0, "annee_mise": 1961.0, "id_pays": 248.0 }, "geometry": { "type": "Point", "coordinates": [ -5.409910008983295, 35.448610014560913 ] } },
{ "type": "Feature", "properties": { "OBJECTID": 14, "objectid_1": 0.0, "nom_barrag": "Safi", "nom_oued": "Asmine ou Sahir", "capacite_i": 2.0, "hauteur": 18.0, "annee_mise": 1965.0, "id_pays": 248.0 }, "geometry": { "type": "Point", "coordinates": [ -9.189399134585077, 32.326719109365605 ] } },
{ "type": "Feature", "properties": { "OBJECTID": 15, "objectid_1": 0.0, "nom_barrag": "Mohammed V", "nom_oued": "Moulouya", "capacite_i": 410.0, "hauteur": 64.0, "annee_mise": 1967.0, "id_pays": 248.0 }, "geometry": { "type": "Point", "coordinates": [ -2.939400012238248, 34.66573001844769 ] } },
{ "type": "Feature", "properties": { "OBJECTID": 16, "objectid_1": 0.0, "nom_barrag": "Ajras", "nom_oued": "Ajras", "capacite_i": 3.0, "hauteur": 18.0, "annee_mise": 1969.0, "id_pays": 248.0 }, "geometry": { "type": "Point", "coordinates": [ -5.494530009761599, 35.301690015124322 ] } },
{ "type": "Feature", "properties": { "OBJECTID": 17, "objectid_1": 0.0, "nom_barrag": "Moulay Youssef", "nom_oued": "Tessaout", "capacite_i": 175.0, "hauteur": 100.0, "annee_mise": 1969.0, "id_pays": 248.0 }, "geometry": { "type": "Point", "coordinates": [ -7.262687837458477, 31.647943955777354 ] } },
{ "type": "Feature", "properties": { "OBJECTID": 18, "objectid_1": 0.0, "nom_barrag": "Hassan Addakhil", "nom_oued": "Ziz", "capacite_i": 347.0, "hauteur": 85.0, "annee_mise": 1971.0, "id_pays": 248.0 }, "geometry": { "type": "Point", "coordinates": [ -4.462254192695069, 31.996418568934725 ] } },
{ "type": "Feature", "properties": { "OBJECTID": 19, "objectid_1": 0.0, "nom_barrag": "Idriss 1er", "nom_oued": "Inaouène", "capacite_i": 1186.0, "hauteur": 72.0, "annee_mise": 1973.0, "id_pays": 248.0 }, "geometry": { "type": "Point", "coordinates": [ -4.75081168383882, 34.16429420946654 ] } },
{ "type": "Feature", "properties": { "OBJECTID": 20, "objectid_1": 0.0, "nom_barrag": "Sidi   Med.  Ben  Abdellah", "nom_oued": "Bouregreg", "capacite_i": 486.0, "hauteur": 99.0, "annee_mise": 1974.0, "id_pays": 248.0 }, "geometry": { "type": "Point", "coordinates": [ -6.751413720098877, 33.940618345651863 ] } },
{ "type": "Feature", "properties": { "OBJECTID": 21, "objectid_1": 0.0, "nom_barrag": "Ibn  Batouta", "nom_oued": "M'harhar", "capacite_i": 38.5, "hauteur": 30.0, "annee_mise": 1977.0, "id_pays": 248.0 }, "geometry": { "type": "Point", "coordinates": [ -5.734253823049354, 35.643584047344959 ] } },
{ "type": "Feature", "properties": { "OBJECTID": 22, "objectid_1": 0.0, "nom_barrag": "Oued  El  Makhazine", "nom_oued": "Loukkos", "capacite_i": 773.0, "hauteur": 67.0, "annee_mise": 1979.0, "id_pays": 248.0 }, "geometry": { "type": "Point", "coordinates": [ -5.840895646159321, 34.944317022928374 ] } },
{ "type": "Feature", "properties": { "OBJECTID": 23, "objectid_1": 0.0, "nom_barrag": "Al  Massira", "nom_oued": "Oum  Er Rbia", "capacite_i": 2760.0, "hauteur": 82.0, "annee_mise": 1979.0, "id_pays": 248.0 }, "geometry": { "type": "Point", "coordinates": [ -7.639694531385067, 32.478247349403247 ] } },
{ "type": "Feature", "properties": { "OBJECTID": 24, "objectid_1": 0.0, "nom_barrag": "Med. Ben Abdelkrim  Khattabi", "nom_oued": "Neckor", "capacite_i": 33.599998474099998, "hauteur": 40.0, "annee_mise": 1981.0, "id_pays": 248.0 }, "geometry": { "type": "Point", "coordinates": [ -3.820581912843721, 35.088551755218639 ] } },
{ "type": "Feature", "properties": { "OBJECTID": 25, "objectid_1": 0.0, "nom_barrag": "Garde  du   Loukkos", "nom_oued": "Loukkos", "capacite_i": 4.0, "hauteur": 9.0, "annee_mise": 1981.0, "id_pays": 248.0 }, "geometry": { "type": "Point", "coordinates": [ -6.090332792773948, 35.157474659379965 ] } },
{ "type": "Feature", "properties": { "OBJECTID": 26, "objectid_1": 0.0, "nom_barrag": "Timi  Noutione", "nom_oued": "Tessaout", "capacite_i": 5.5, "hauteur": 45.0, "annee_mise": 1981.0, "id_pays": 248.0 }, "geometry": { "type": "Point", "coordinates": [ -7.259141303778424, 31.667883387668724 ] } },
{ "type": "Feature", "properties": { "OBJECTID": 27, "objectid_1": 0.0, "nom_barrag": "Sidi  Driss", "nom_oued": "Lakhdar", "capacite_i": 7.0, "hauteur": 42.0, "annee_mise": 1984.0, "id_pays": 248.0 }, "geometry": { "type": "Point", "coordinates": [ -7.079714516670859, 31.848446803025102 ] } },
{ "type": "Feature", "properties": { "OBJECTID": 28, "objectid_1": 0.0, "nom_barrag": "Ait  Lamrabtya", "nom_oued": "Kanaza", "capacite_i": 0.20000000298000001, "hauteur": 19.0, "annee_mise": 1985.0, "id_pays": 248.0 }, "geometry": { "type": "Point", "coordinates": [ -5.932480051293382, 33.463337510798652 ] } },
{ "type": "Feature", "properties": { "OBJECTID": 29, "objectid_1": 0.0, "nom_barrag": "Arid", "nom_oued": "Arid", "capacite_i": 0.69999998807999997, "hauteur": 20.0, "annee_mise": 1985.0, "id_pays": 248.0 }, "geometry": { "type": "Point", "coordinates": [ -6.607980299266, 33.510999041369161 ] } },
{ "type": "Feature", "properties": { "OBJECTID": 30, "objectid_1": 0.0, "nom_barrag": "Msakhskha", "nom_oued": "Msakhskha", "capacite_i": 2.7000000476800001, "hauteur": 20.0, "annee_mise": 1985.0, "id_pays": 248.0 }, "geometry": { "type": "Point", "coordinates": [ -1.735839903102936, 33.980570808738129 ] } },
{ "type": "Feature", "properties": { "OBJECTID": 31, "objectid_1": 0.0, "nom_barrag": "SIDI ALI", "nom_oued": null, "capacite_i": 0.0, "hauteur": 10.0, "annee_mise": 1985.0, "id_pays": 248.0 }, "geometry": { "type": "Point", "coordinates": [ -2.159689545952614, 34.041609785322599 ] } },
{ "type": "Feature", "properties": { "OBJECTID": 32, "objectid_1": 0.0, "nom_barrag": "Kwacem  Aval", "nom_oued": "Chguigua", "capacite_i": 3.0, "hauteur": 12.0, "annee_mise": 1985.0, "id_pays": 248.0 }, "geometry": { "type": "Point", "coordinates": [ -7.986110009957807, 33.126280017005328 ] } },
{ "type": "Feature", "properties": { "OBJECTID": 33, "objectid_1": 0.0, "nom_barrag": "Imi  Larbaa", "nom_oued": "Tighizrit", "capacite_i": 0.80000001192000003, "hauteur": 16.0, "annee_mise": 1985.0, "id_pays": 248.0 }, "geometry": { "type": "Point", "coordinates": [ -7.626473600131789, 31.597701640661459 ] } },
{ "type": "Feature", "properties": { "OBJECTID": 34, "objectid_1": 0.0, "nom_barrag": "N'ZALET AZRI", "nom_oued": null, "capacite_i": 0.0, "hauteur": 19.0, "annee_mise": 1985.0, "id_pays": 248.0 }, "geometry": { "type": "Point", "coordinates": [ -8.208038290026437, 31.91015749555261 ] } },
{ "type": "Feature", "properties": { "OBJECTID": 35, "objectid_1": 0.0, "nom_barrag": "Hassan  1", "nom_oued": "Lakhdar", "capacite_i": 262.5, "hauteur": 145.0, "annee_mise": 1986.0, "id_pays": 248.0 }, "geometry": { "type": "Point", "coordinates": [ -6.824850013490548, 31.81689002046571 ] } },
{ "type": "Feature", "properties": { "OBJECTID": 36, "objectid_1": 0.0, "nom_barrag": "Bni Smir", "nom_oued": "Oued Zem", "capacite_i": 0.89999997616000005, "hauteur": 16.0, "annee_mise": 1986.0, "id_pays": 248.0 }, "geometry": { "type": "Point", "coordinates": [ -6.570998974051053, 32.781217948823645 ] } },
{ "type": "Feature", "properties": { "OBJECTID": 37, "objectid_1": 0.0, "nom_barrag": "Agafay", "nom_oued": "Arissa", "capacite_i": 0.5, "hauteur": 28.0, "annee_mise": 1986.0, "id_pays": 248.0 }, "geometry": { "type": "Point", "coordinates": [ -8.246969953760772, 31.472133903556699 ] } },
{ "type": "Feature", "properties": { "OBJECTID": 38, "objectid_1": 0.0, "nom_barrag": "Tlet  Boubker", "nom_oued": "Irhane", "capacite_i": 2.7999999523199999, "hauteur": 30.0, "annee_mise": 1986.0, "id_pays": 248.0 }, "geometry": { "type": "Point", "coordinates": [ -3.401851573590142, 34.824055966468016 ] } },
{ "type": "Feature", "properties": { "OBJECTID": 39, "objectid_1": 0.0, "nom_barrag": "Si  El  Miari", "nom_oued": "Takhzrit", "capacite_i": 1.1000000238400001, "hauteur": 21.0, "annee_mise": 1986.0, "id_pays": 248.0 }, "geometry": { "type": "Point", "coordinates": [ -6.395093993891965, 32.66010194749839 ] } },
{ "type": "Feature", "properties": { "OBJECTID": 40, "objectid_1": 0.0, "nom_barrag": "Tizguit Aval", "nom_oued": "Tizguite", "capacite_i": 0.10000000149, "hauteur": 18.0, "annee_mise": 1986.0, "id_pays": 248.0 }, "geometry": { "type": "Point", "coordinates": [ -5.093215786317472, 33.521734120028157 ] } },
{ "type": "Feature", "properties": { "OBJECTID": 41, "objectid_1": 0.0, "nom_barrag": "Boukerdane", "nom_oued": "Boutaaricht", "capacite_i": 0.40000000596000002, "hauteur": 22.0, "annee_mise": 1986.0, "id_pays": 248.0 }, "geometry": { "type": "Point", "coordinates": [ -4.114034754807381, 32.711463200792743 ] } },
{ "type": "Feature", "properties": { "OBJECTID": 42, "objectid_1": 0.0, "nom_barrag": "Akkrouz", "nom_oued": "N'oukrouz", "capacite_i": 0.60000002383999995, "hauteur": 24.0, "annee_mise": 1986.0, "id_pays": 248.0 }, "geometry": { "type": "Point", "coordinates": [ -4.880588188721068, 31.47016607836045 ] } },
{ "type": "Feature", "properties": { "OBJECTID": 43, "objectid_1": 0.0, "nom_barrag": "Achbarou", "nom_oued": "Gaiz", "capacite_i": 1.0, "hauteur": 20.0, "annee_mise": 1986.0, "id_pays": 248.0 }, "geometry": { "type": "Point", "coordinates": [ -5.09357232484847, 31.157268326335853 ] } },
{ "type": "Feature", "properties": { "OBJECTID": 44, "objectid_1": 0.0, "nom_barrag": "Boutaaricht", "nom_oued": "Boutaaricht", "capacite_i": 0.69999998807999997, "hauteur": 18.0, "annee_mise": 1986.0, "id_pays": 248.0 }, "geometry": { "type": "Point", "coordinates": [ -4.098625632077987, 32.313032755802325 ] } },
{ "type": "Feature", "properties": { "OBJECTID": 45, "objectid_1": 0.0, "nom_barrag": "Hammou   Ourzag", "nom_oued": "Ham.   Ourzag", "capacite_i": 1.6000000238400001, "hauteur": 14.0, "annee_mise": 1986.0, "id_pays": 248.0 }, "geometry": { "type": "Point", "coordinates": [ -2.569482365999776, 32.734253903182882 ] } },
{ "type": "Feature", "properties": { "OBJECTID": 46, "objectid_1": 0.0, "nom_barrag": "Kheng   El  H'da", "nom_oued": "Marbouha", "capacite_i": 3.7999999523199999, "hauteur": 15.0, "annee_mise": 1986.0, "id_pays": 248.0 }, "geometry": { "type": "Point", "coordinates": [ -2.914591313595305, 33.607367048590866 ] } },
{ "type": "Feature", "properties": { "OBJECTID": 47, "objectid_1": 0.0, "nom_barrag": "Azib Douirani", "nom_oued": "Douirani", "capacite_i": 0.60000002383999995, "hauteur": 15.0, "annee_mise": 1987.0, "id_pays": 248.0 }, "geometry": { "type": "Point", "coordinates": [ -8.840310011576872, 31.466340018244043 ] } },
{ "type": "Feature", "properties": { "OBJECTID": 48, "objectid_1": 0.0, "nom_barrag": "Imin  Lhad", "nom_oued": "Zeddir", "capacite_i": 0.40000000596000002, "hauteur": 23.0, "annee_mise": 1987.0, "id_pays": 248.0 }, "geometry": { "type": "Point", "coordinates": [ -9.625358186994298, 31.248823201232543 ] } },
{ "type": "Feature", "properties": { "OBJECTID": 49, "objectid_1": 0.0, "nom_barrag": "Batmat  Rma", "nom_oued": "Ain Hammou", "capacite_i": 0.80000001192000003, "hauteur": 20.0, "annee_mise": 1987.0, "id_pays": 248.0 }, "geometry": { "type": "Point", "coordinates": [ -2.865540636368531, 34.293215875199451 ] } },
{ "type": "Feature", "properties": { "OBJECTID": 50, "objectid_1": 0.0, "nom_barrag": "Ain Tourtoute", "nom_oued": "Behaligarane", "capacite_i": 0.89999997616000005, "hauteur": 21.0, "annee_mise": 1987.0, "id_pays": 248.0 }, "geometry": { "type": "Point", "coordinates": [ -5.77654014390216, 33.108201339766104 ] } },
{ "type": "Feature", "properties": { "OBJECTID": 51, "objectid_1": 0.0, "nom_barrag": "Ruidat  Amont", "nom_oued": "Rouidat", "capacite_i": 2.9000000953699998, "hauteur": 24.0, "annee_mise": 1987.0, "id_pays": 248.0 }, "geometry": { "type": "Point", "coordinates": [ -6.969273890109216, 33.736220645808174 ] } },
{ "type": "Feature", "properties": { "OBJECTID": 52, "objectid_1": 0.0, "nom_barrag": "Ain Koreima", "nom_oued": "Akrech", "capacite_i": 1.2999999523200001, "hauteur": 26.0, "annee_mise": 1987.0, "id_pays": 248.0 }, "geometry": { "type": "Point", "coordinates": [ -6.825104853355286, 33.823882408046266 ] } },
{ "type": "Feature", "properties": { "OBJECTID": 53, "objectid_1": 0.0, "nom_barrag": "Mouilah", "nom_oued": "Mouilah", "capacite_i": 0.5, "hauteur": 16.0, "annee_mise": 1987.0, "id_pays": 248.0 }, "geometry": { "type": "Point", "coordinates": [ -6.386900516179099, 32.811543930669487 ] } },
{ "type": "Feature", "properties": { "OBJECTID": 54, "objectid_1": 0.0, "nom_barrag": "Boukhalef  1", "nom_oued": "Msaber", "capacite_i": 1.1000000238400001, "hauteur": 20.0, "annee_mise": 1989.0, "id_pays": 248.0 }, "geometry": { "type": "Point", "coordinates": [ -5.89809748084651, 35.754757588260013 ] } },
{ "type": "Feature", "properties": { "OBJECTID": 55, "objectid_1": 0.0, "nom_barrag": "Touiltest", "nom_oued": "Touiltest", "capacite_i": 1.0, "hauteur": 17.0, "annee_mise": 1989.0, "id_pays": 248.0 }, "geometry": { "type": "Point", "coordinates": [ -6.54970130958747, 32.991502402458472 ] } },
{ "type": "Feature", "properties": { "OBJECTID": 56, "objectid_1": 0.0, "nom_barrag": "Itzar", "nom_oued": "Tifitoucht", "capacite_i": 0.69999998807999997, "hauteur": 30.0, "annee_mise": 1989.0, "id_pays": 248.0 }, "geometry": { "type": "Point", "coordinates": [ -5.083517563160598, 32.914445716072798 ] } },
{ "type": "Feature", "properties": { "OBJECTID": 57, "objectid_1": 0.0, "nom_barrag": "Allal   Al  Fassi", "nom_oued": "Sebou", "capacite_i": 81.5, "hauteur": 61.0, "annee_mise": 1990.0, "id_pays": 248.0 }, "geometry": { "type": "Point", "coordinates": [ -4.67987115096127, 33.933452492715816 ] } },
{ "type": "Feature", "properties": { "OBJECTID": 58, "objectid_1": 0.0, "nom_barrag": "Ras  Bel  Firane", "nom_oued": "Bel  Firane", "capacite_i": 0.30000001191999998, "hauteur": 17.0, "annee_mise": 1990.0, "id_pays": 248.0 }, "geometry": { "type": "Point", "coordinates": [ -3.239235281355998, 34.112981673037275 ] } },
{ "type": "Feature", "properties": { "OBJECTID": 59, "objectid_1": 0.0, "nom_barrag": "Oued  Aricha", "nom_oued": "Aricha", "capacite_i": 1.7999999523200001, "hauteur": 30.0, "annee_mise": 1990.0, "id_pays": 248.0 }, "geometry": { "type": "Point", "coordinates": [ -7.120940010902705, 33.091860017346676 ] } },
{ "type": "Feature", "properties": { "OBJECTID": 60, "objectid_1": 0.0, "nom_barrag": "Saboun", "nom_oued": "Saboun", "capacite_i": 1.1000000238400001, "hauteur": 15.0, "annee_mise": 1991.0, "id_pays": 248.0 }, "geometry": { "type": "Point", "coordinates": [ -5.798850897662986, 35.671705853786897 ] } },
{ "type": "Feature", "properties": { "OBJECTID": 61, "objectid_1": 0.0, "nom_barrag": "Sghir", "nom_oued": "Sghir", "capacite_i": 2.2999999523199999, "hauteur": 15.0, "annee_mise": 1991.0, "id_pays": 248.0 }, "geometry": { "type": "Point", "coordinates": [ -5.827684624264047, 35.697438172736589 ] } },
{ "type": "Feature", "properties": { "OBJECTID": 62, "objectid_1": 0.0, "nom_barrag": "Smir", "nom_oued": "Smir", "capacite_i": 43.0, "hauteur": 45.0, "annee_mise": 1991.0, "id_pays": 248.0 }, "geometry": { "type": "Point", "coordinates": [ -5.38515793900694, 35.686964911588746 ] } },
{ "type": "Feature", "properties": { "OBJECTID": 63, "objectid_1": 0.0, "nom_barrag": "Garde  de Sebou", "nom_oued": "Sebou", "capacite_i": 40.0, "hauteur": 18.0, "annee_mise": 1991.0, "id_pays": 248.0 }, "geometry": { "type": "Point", "coordinates": [ -6.414462691627842, 34.490933651170486 ] } },
{ "type": "Feature", "properties": { "OBJECTID": 64, "objectid_1": 0.0, "nom_barrag": "Blad  El  Gaada", "nom_oued": "Boufekrane", "capacite_i": 2.9000000953699998, "hauteur": 30.0, "annee_mise": 1991.0, "id_pays": 248.0 }, "geometry": { "type": "Point", "coordinates": [ -4.957057800132796, 34.021758581078615 ] } },
{ "type": "Feature", "properties": { "OBJECTID": 65, "objectid_1": 0.0, "nom_barrag": "Tizguit  Amont", "nom_oued": "Tizguite", "capacite_i": 0.30000001191999998, "hauteur": 15.0, "annee_mise": 1991.0, "id_pays": 248.0 }, "geometry": { "type": "Point", "coordinates": [ -5.08935792494015, 33.51430425393621 ] } },
{ "type": "Feature", "properties": { "OBJECTID": 66, "objectid_1": 0.0, "nom_barrag": "Jorf  El  Ghorab", "nom_oued": "Jorf  El  Ghorab", "capacite_i": 0.89999997616000005, "hauteur": 29.0, "annee_mise": 1992.0, "id_pays": 248.0 }, "geometry": { "type": "Point", "coordinates": [ -5.021338280352964, 34.461855574264014 ] } },
{ "type": "Feature", "properties": { "OBJECTID": 67, "objectid_1": 0.0, "nom_barrag": "Essaf", "nom_oued": "Essaf", "capacite_i": 1.0, "hauteur": 29.0, "annee_mise": 1992.0, "id_pays": 248.0 }, "geometry": { "type": "Point", "coordinates": [ -4.889460011274698, 34.467200016767627 ] } },
{ "type": "Feature", "properties": { "OBJECTID": 68, "objectid_1": 0.0, "nom_barrag": "Douiss", "nom_oued": "Douiss", "capacite_i": 0.89999997616000005, "hauteur": 21.0, "annee_mise": 1992.0, "id_pays": 248.0 }, "geometry": { "type": "Point", "coordinates": [ -3.512989065297676, 31.913860819785548 ] } },
{ "type": "Feature", "properties": { "OBJECTID": 69, "objectid_1": 0.0, "nom_barrag": "Joumouaa", "nom_oued": "Joumouaa", "capacite_i": 6.5, "hauteur": 57.0, "annee_mise": 1992.0, "id_pays": 248.0 }, "geometry": { "type": "Point", "coordinates": [ -4.318852321419296, 34.934772917836952 ] } },
{ "type": "Feature", "properties": { "OBJECTID": 70, "objectid_1": 0.0, "nom_barrag": "Mahraz", "nom_oued": "El  Mahraz", "capacite_i": 0.60000002383999995, "hauteur": 17.0, "annee_mise": 1992.0, "id_pays": 248.0 }, "geometry": { "type": "Point", "coordinates": [ -4.97242200690313, 33.970007909724124 ] } },
{ "type": "Feature", "properties": { "OBJECTID": 71, "objectid_1": 0.0, "nom_barrag": "Sahla", "nom_oued": "Sahla", "capacite_i": 62.0, "hauteur": 55.0, "annee_mise": 1994.0, "id_pays": 248.0 }, "geometry": { "type": "Point", "coordinates": [ -4.67112435649654, 34.567461936628462 ] } },
{ "type": "Feature", "properties": { "OBJECTID": 72, "objectid_1": 0.0, "nom_barrag": "Aggay", "nom_oued": "Aggay", "capacite_i": 1.2000000476799999, "hauteur": 40.0, "annee_mise": 1994.0, "id_pays": 248.0 }, "geometry": { "type": "Point", "coordinates": [ -4.888739324049888, 33.803799647108413 ] } },
{ "type": "Feature", "properties": { "OBJECTID": 73, "objectid_1": 0.0, "nom_barrag": "Neuf   Avril  1947", "nom_oued": "Hachef", "capacite_i": 300.0, "hauteur": 52.0, "annee_mise": 1995.0, "id_pays": 248.0 }, "geometry": { "type": "Point", "coordinates": [ -5.837872664614486, 35.534044217848496 ] } },
{ "type": "Feature", "properties": { "OBJECTID": 74, "objectid_1": 0.0, "nom_barrag": "Injil", "nom_oued": "Taghoucht", "capacite_i": 12.0, "hauteur": 36.0, "annee_mise": 1995.0, "id_pays": 248.0 }, "geometry": { "type": "Point", "coordinates": [ -4.970259883690424, 33.653479314926976 ] } },
{ "type": "Feature", "properties": { "OBJECTID": 75, "objectid_1": 0.0, "nom_barrag": "Arabat", "nom_oued": "Arabat", "capacite_i": 1.7000000476799999, "hauteur": 17.0, "annee_mise": 1995.0, "id_pays": 248.0 }, "geometry": { "type": "Point", "coordinates": [ -2.877894050902152, 35.0201314824901 ] } },
{ "type": "Feature", "properties": { "OBJECTID": 76, "objectid_1": 0.0, "nom_barrag": "Al  Wahda", "nom_oued": "Ouergha", "capacite_i": 3730.0, "hauteur": 88.0, "annee_mise": 1996.0, "id_pays": 248.0 }, "geometry": { "type": "Point", "coordinates": [ -5.201696208175404, 34.600447967990156 ] } },
{ "type": "Feature", "properties": { "OBJECTID": 77, "objectid_1": 0.0, "nom_barrag": "Sidi  Chahed", "nom_oued": "Mikkès", "capacite_i": 170.0, "hauteur": 51.0, "annee_mise": 1996.0, "id_pays": 248.0 }, "geometry": { "type": "Point", "coordinates": [ -5.321605014520595, 34.107727435145051 ] } },
{ "type": "Feature", "properties": { "OBJECTID": 78, "objectid_1": 0.0, "nom_barrag": "Gharbia", "nom_oued": "Ouergha", "capacite_i": 0.69999998807999997, "hauteur": 22.0, "annee_mise": 1997.0, "id_pays": 248.0 }, "geometry": { "type": "Point", "coordinates": [ -4.825305859775466, 34.463188533803375 ] } },
{ "type": "Feature", "properties": { "OBJECTID": 79, "objectid_1": 0.0, "nom_barrag": "Ben  Yakhlef", "nom_oued": "Ben  Yakhlef", "capacite_i": 0.30000001191999998, "hauteur": 18.0, "annee_mise": 1997.0, "id_pays": 248.0 }, "geometry": { "type": "Point", "coordinates": [ -2.284720011041728, 34.901550018642858 ] } },
{ "type": "Feature", "properties": { "OBJECTID": 80, "objectid_1": 0.0, "nom_barrag": "MENZEL", "nom_oued": "El Manzel", "capacite_i": 0.0, "hauteur": 18.0, "annee_mise": 1998.0, "id_pays": 248.0 }, "geometry": { "type": "Point", "coordinates": [ -2.275166386317286, 34.903082867972181 ] } },
{ "type": "Feature", "properties": { "OBJECTID": 81, "objectid_1": 0.0, "nom_barrag": "Barrage sur Oued Za (Ex Hassan II)", "nom_oued": "Oued Za", "capacite_i": 275.0, "hauteur": 83.0, "annee_mise": 1998.0, "id_pays": 248.0 }, "geometry": { "type": "Point", "coordinates": [ -2.641144332416789, 34.209301345679776 ] } },
{ "type": "Feature", "properties": { "OBJECTID": 82, "objectid_1": 0.0, "nom_barrag": "Bouhouda", "nom_oued": "Sra", "capacite_i": 55.5, "hauteur": 55.0, "annee_mise": 1998.0, "id_pays": 248.0 }, "geometry": { "type": "Point", "coordinates": [ -4.575085723185011, 34.612925946969092 ] } },
{ "type": "Feature", "properties": { "OBJECTID": 83, "objectid_1": 0.0, "nom_barrag": "Bab  Louta", "nom_oued": "Laoutar", "capacite_i": 37.0, "hauteur": 54.0, "annee_mise": 1999.0, "id_pays": 248.0 }, "geometry": { "type": "Point", "coordinates": [ -4.33511962053672, 34.017801215687093 ] } },
{ "type": "Feature", "properties": { "OBJECTID": 84, "objectid_1": 0.0, "nom_barrag": "Asfalou", "nom_oued": "Asfalou", "capacite_i": 317.0, "hauteur": 112.0, "annee_mise": 1999.0, "id_pays": 248.0 }, "geometry": { "type": "Point", "coordinates": [ -4.191997170439782, 34.635677963965108 ] } },
{ "type": "Feature", "properties": { "OBJECTID": 85, "objectid_1": 0.0, "nom_barrag": "Bouknadel", "nom_oued": "Serou", "capacite_i": 1.0, "hauteur": 19.0, "annee_mise": 1998.0, "id_pays": 248.0 }, "geometry": { "type": "Point", "coordinates": [ -6.514210245092194, 33.301484430114407 ] } },
{ "type": "Feature", "properties": { "OBJECTID": 86, "objectid_1": 0.0, "nom_barrag": "Ahmed  Al  Hansali", "nom_oued": "Oum Er Rbia", "capacite_i": 740.0, "hauteur": 101.0, "annee_mise": 2001.0, "id_pays": 248.0 }, "geometry": { "type": "Point", "coordinates": [ -5.890196276548346, 32.695612152449712 ] } },
{ "type": "Feature", "properties": { "OBJECTID": 87, "objectid_1": 0.0, "nom_barrag": "HAD LAGHOUALEM", "nom_oued": "Bridila", "capacite_i": 0.0, "hauteur": 19.0, "annee_mise": 2002.0, "id_pays": 248.0 }, "geometry": { "type": "Point", "coordinates": [ -6.690192380376928, 33.328621047116833 ] } },
{ "type": "Feature", "properties": { "OBJECTID": 88, "objectid_1": 0.0, "nom_barrag": "Ouled  Abbass", "nom_oued": "Ouled  Abbass", "capacite_i": 0.89999997616000005, "hauteur": 15.0, "annee_mise": 2001.0, "id_pays": 248.0 }, "geometry": { "type": "Point", "coordinates": [ -8.452108736865339, 31.967665674929986 ] } },
{ "type": "Feature", "properties": { "OBJECTID": 89, "objectid_1": 0.0, "nom_barrag": "Ait  Messaoud", "nom_oued": "Oum Er Rbia", "capacite_i": 13.199999809299999, "hauteur": 34.0, "annee_mise": 2003.0, "id_pays": 248.0 }, "geometry": { "type": "Point", "coordinates": [ -6.187827590617536, 32.625262839848283 ] } },
{ "type": "Feature", "properties": { "OBJECTID": 90, "objectid_1": 0.0, "nom_barrag": "BOUBAGRA", "nom_oued": null, "capacite_i": 0.0, "hauteur": 21.0, "annee_mise": 2002.0, "id_pays": 248.0 }, "geometry": { "type": "Point", "coordinates": [ -6.2632226163915, 32.786398424645782 ] } },
{ "type": "Feature", "properties": { "OBJECTID": 91, "objectid_1": 0.0, "nom_barrag": "DRAA LAGRAGRA", "nom_oued": "Jmamla", "capacite_i": 0.0, "hauteur": 24.0, "annee_mise": 2003.0, "id_pays": 248.0 }, "geometry": { "type": "Point", "coordinates": [ -8.612654196203223, 31.8242170924348 ] } },
{ "type": "Feature", "properties": { "OBJECTID": 92, "objectid_1": 0.0, "nom_barrag": "BAAJ", "nom_oued": null, "capacite_i": 0.0, "hauteur": 16.5, "annee_mise": 2003.0, "id_pays": 248.0 }, "geometry": { "type": "Point", "coordinates": [ -3.316913166488698, 35.107101202690146 ] } },
{ "type": "Feature", "properties": { "OBJECTID": 93, "objectid_1": 0.0, "nom_barrag": "SEHB EL  KHYAT", "nom_oued": null, "capacite_i": 0.0, "hauteur": 17.0, "annee_mise": 2003.0, "id_pays": 248.0 }, "geometry": { "type": "Point", "coordinates": [ -1.989380014712134, 32.743280023469403 ] } },
{ "type": "Feature", "properties": { "OBJECTID": 94, "objectid_1": 0.0, "nom_barrag": "ROKNET ENNAM", "nom_oued": null, "capacite_i": 0.0, "hauteur": 18.0, "annee_mise": 2003.0, "id_pays": 248.0 }, "geometry": { "type": "Point", "coordinates": [ -1.696241572264189, 32.456549209488408 ] } },
{ "type": "Feature", "properties": { "OBJECTID": 95, "objectid_1": 0.0, "nom_barrag": "OUED ENNAMOUS", "nom_oued": null, "capacite_i": 0.0, "hauteur": 18.0, "annee_mise": 2003.0, "id_pays": 248.0 }, "geometry": { "type": "Point", "coordinates": [ -2.243637132863407, 33.352094447924344 ] } },
{ "type": "Feature", "properties": { "OBJECTID": 96, "objectid_1": 0.0, "nom_barrag": "Hassan II (Ex Sidi Said)", "nom_oued": "Moulouya", "capacite_i": 400.0, "hauteur": 124.0, "annee_mise": 2003.0, "id_pays": 248.0 }, "geometry": { "type": "Point", "coordinates": [ -4.769438691044329, 32.794671980452549 ] } },
{ "type": "Feature", "properties": { "OBJECTID": 97, "objectid_1": 0.0, "nom_barrag": "MOULAY HASSAN BELMAHDI", "nom_oued": "Raouz", "capacite_i": 0.0, "hauteur": 49.0, "annee_mise": 2005.0, "id_pays": 248.0 }, "geometry": { "type": "Point", "coordinates": [ -5.504910009597448, 35.702630013687134 ] } },
{ "type": "Feature", "properties": { "OBJECTID": 98, "objectid_1": 0.0, "nom_barrag": "S.M.B SLIMANE JAZOULI", "nom_oued": null, "capacite_i": 0.0, "hauteur": 60.0, "annee_mise": 2005.0, "id_pays": 248.0 }, "geometry": { "type": "Point", "coordinates": [ -9.643420011452385, 31.097130018021932 ] } },
{ "type": "Feature", "properties": { "OBJECTID": 99, "objectid_1": 0.0, "nom_barrag": "TAMASNA", "nom_oued": "Zamrine", "capacite_i": 0.0, "hauteur": 66.0, "annee_mise": 2005.0, "id_pays": 248.0 }, "geometry": { "type": "Point", "coordinates": [ -7.101393257248457, 33.207834958085179 ] } },
{ "type": "Feature", "properties": { "OBJECTID": 100, "objectid_1": 0.0, "nom_barrag": "HASSAR", "nom_oued": null, "capacite_i": 0.0, "hauteur": 15.0, "annee_mise": 2005.0, "id_pays": 248.0 }, "geometry": { "type": "Point", "coordinates": [ -7.436271102364733, 33.577052053873672 ] } },
{ "type": "Feature", "properties": { "OBJECTID": 101, "objectid_1": 0.0, "nom_barrag": "RMEL", "nom_oued": "Rmel", "capacite_i": 0.0, "hauteur": 65.0, "annee_mise": 0.0, "id_pays": 248.0 }, "geometry": { "type": "Point", "coordinates": [ -5.48632000873257, 35.878300013554181 ] } },
{ "type": "Feature", "properties": { "OBJECTID": 102, "objectid_1": 0.0, "nom_barrag": "WIRGANE", "nom_oued": "Wirgane", "capacite_i": 0.0, "hauteur": 70.0, "annee_mise": 0.0, "id_pays": 248.0 }, "geometry": { "type": "Point", "coordinates": [ -8.089874823226374, 31.19235754347865 ] } },
{ "type": "Feature", "properties": { "OBJECTID": 103, "objectid_1": 0.0, "nom_barrag": "AL HIMER", "nom_oued": null, "capacite_i": 0.0, "hauteur": 39.0, "annee_mise": 0.0, "id_pays": 248.0 }, "geometry": { "type": "Point", "coordinates": [ -7.347197742914124, 33.108068969237813 ] } },
{ "type": "Feature", "properties": { "OBJECTID": 104, "objectid_1": 0.0, "nom_barrag": "KOUDIAT EL GARNE", "nom_oued": "Tamedroust", "capacite_i": 0.0, "hauteur": 55.0, "annee_mise": 0.0, "id_pays": 248.0 }, "geometry": { "type": "Point", "coordinates": [ -7.524071578862047, 33.024127010901637 ] } },
{ "type": "Feature", "properties": { "OBJECTID": 105, "objectid_1": 0.0, "nom_barrag": "MAZER", "nom_oued": "Mazer", "capacite_i": 0.0, "hauteur": 39.0, "annee_mise": 0.0, "id_pays": 248.0 }, "geometry": { "type": "Point", "coordinates": [ -7.465601759806439, 33.109204056735365 ] } },
{ "type": "Feature", "properties": { "OBJECTID": 106, "objectid_1": 0.0, "nom_barrag": "TASKOURT", "nom_oued": "Al Mal", "capacite_i": 0.0, "hauteur": 75.0, "annee_mise": 0.0, "id_pays": 248.0 }, "geometry": { "type": "Point", "coordinates": [ -8.478678784974779, 31.182844028089239 ] } },
{ "type": "Feature", "properties": { "OBJECTID": 107, "objectid_1": 0.0, "nom_barrag": "SEHB EL MERGA", "nom_oued": "Sehb El Merga", "capacite_i": 0.0, "hauteur": 40.0, "annee_mise": 0.0, "id_pays": 248.0 }, "geometry": { "type": "Point", "coordinates": [ -7.113240011879815, 32.301510018351017 ] } },
{ "type": "Feature", "properties": { "OBJECTID": 108, "objectid_1": 0.0, "nom_barrag": "SIDI YAHIA", "nom_oued": "Khellata", "capacite_i": 0.0, "hauteur": 30.0, "annee_mise": 0.0, "id_pays": 248.0 }, "geometry": { "type": "Point", "coordinates": [ -6.912375758885293, 33.771233905360269 ] } },
{ "type": "Feature", "properties": { "OBJECTID": 109, "objectid_1": 0.0, "nom_barrag": "EL HANDAK", "nom_oued": "El Handak", "capacite_i": 0.0, "hauteur": 27.0, "annee_mise": 0.0, "id_pays": 248.0 }, "geometry": { "type": "Point", "coordinates": [ -6.348275502380407, 32.307571243239387 ] } },
{ "type": "Feature", "properties": { "OBJECTID": 110, "objectid_1": 0.0, "nom_barrag": "SFEISSIF", "nom_oued": "Safsaf", "capacite_i": 0.0, "hauteur": 28.0, "annee_mise": 0.0, "id_pays": 248.0 }, "geometry": { "type": "Point", "coordinates": [ -1.347214406484423, 32.338794879861965 ] } },
{ "type": "Feature", "properties": { "OBJECTID": 111, "objectid_1": 0.0, "nom_barrag": "TATIOUINE", "nom_oued": "Tatiouine", "capacite_i": 0.0, "hauteur": 18.0, "annee_mise": 0.0, "id_pays": 248.0 }, "geometry": { "type": "Point", "coordinates": [ -4.769417502952051, 32.588022423152289 ] } },
{ "type": "Feature", "properties": { "OBJECTID": 112, "objectid_1": 0.0, "nom_barrag": "TAKHZIRT", "nom_oued": "Takhzirt", "capacite_i": 0.0, "hauteur": 22.0, "annee_mise": 0.0, "id_pays": 248.0 }, "geometry": { "type": "Point", "coordinates": [ -6.318050013409122, 30.811750022039465 ] } },
{ "type": "Feature", "properties": { "OBJECTID": 113, "objectid_1": 0.0, "nom_barrag": "CHBIKA", "nom_oued": "Chbika", "capacite_i": 0.0, "hauteur": 23.0, "annee_mise": 0.0, "id_pays": 248.0 }, "geometry": { "type": "Point", "coordinates": [ -6.69141072212201, 33.159955807933891 ] } },
{ "type": "Feature", "properties": { "OBJECTID": 114, "objectid_1": 0.0, "nom_barrag": "Bouhouta", "nom_oued": "Bouhouta", "capacite_i": 0.89999997616000005, "hauteur": 19.0, "annee_mise": 2001.0, "id_pays": 248.0 }, "geometry": { "type": "Point", "coordinates": [ -8.818362264705682, 32.004997757842474 ] } },
{ "type": "Feature", "properties": { "OBJECTID": 115, "objectid_1": 0.0, "nom_barrag": "Mansour Eddahbi", "nom_oued": "Draa", "capacite_i": 529.0, "hauteur": 70.0, "annee_mise": 1972.0, "id_pays": 248.0 }, "geometry": { "type": "Point", "coordinates": [ -6.761460321487676, 30.915146842995537 ] } },
{ "type": "Feature", "properties": { "OBJECTID": 116, "objectid_1": 0.0, "nom_barrag": "Youssef Ben Tachfine", "nom_oued": "Massa", "capacite_i": 303.0, "hauteur": 85.0, "annee_mise": 1972.0, "id_pays": 248.0 }, "geometry": { "type": "Point", "coordinates": [ -9.496197415981701, 29.848373910046895 ] } },
{ "type": "Feature", "properties": { "OBJECTID": 117, "objectid_1": 0.0, "nom_barrag": "Abdelmoumen", "nom_oued": "Issen", "capacite_i": 216.0, "hauteur": 94.0, "annee_mise": 1981.0, "id_pays": 248.0 }, "geometry": { "type": "Point", "coordinates": [ -9.200970012623856, 30.67728001898919 ] } },
{ "type": "Feature", "properties": { "OBJECTID": 118, "objectid_1": 0.0, "nom_barrag": "Sfa", "nom_oued": "Chtouka Ait Baha", "capacite_i": 0.60000002383999995, "hauteur": 16.0, "annee_mise": 1985.0, "id_pays": 248.0 }, "geometry": { "type": "Point", "coordinates": [ -9.173087017354538, 30.192666278737367 ] } },
{ "type": "Feature", "properties": { "OBJECTID": 119, "objectid_1": 0.0, "nom_barrag": "Dkhila", "nom_oued": "Issen", "capacite_i": 0.69999998807999997, "hauteur": 32.0, "annee_mise": 1986.0, "id_pays": 248.0 }, "geometry": { "type": "Point", "coordinates": [ -9.286960013259831, 30.571890019625549 ] } },
{ "type": "Feature", "properties": { "OBJECTID": 120, "objectid_1": 0.0, "nom_barrag": "Assif  Taguenza", "nom_oued": "Taguenza", "capacite_i": 0.40000000596000002, "hauteur": 24.0, "annee_mise": 1986.0, "id_pays": 248.0 }, "geometry": { "type": "Point", "coordinates": [ -9.39519199097413, 30.485079535369639 ] } },
{ "type": "Feature", "properties": { "OBJECTID": 121, "objectid_1": 0.0, "nom_barrag": "Akka  N'oussikis", "nom_oued": "N'oussikiss", "capacite_i": 1.0, "hauteur": 42.0, "annee_mise": 1986.0, "id_pays": 248.0 }, "geometry": { "type": "Point", "coordinates": [ -5.909386957920009, 31.700265923787697 ] } },
{ "type": "Feature", "properties": { "OBJECTID": 122, "objectid_1": 0.0, "nom_barrag": "Aoulouz", "nom_oued": "Souss", "capacite_i": 110.0, "hauteur": 79.0, "annee_mise": 1991.0, "id_pays": 248.0 }, "geometry": { "type": "Point", "coordinates": [ -8.139811307585328, 30.695702479390881 ] } },
{ "type": "Feature", "properties": { "OBJECTID": 123, "objectid_1": 0.0, "nom_barrag": "Imaouene", "nom_oued": "Imaouene", "capacite_i": 0.20000000298000001, "hauteur": 23.0, "annee_mise": 1992.0, "id_pays": 248.0 }, "geometry": { "type": "Point", "coordinates": [ -9.714618934972915, 29.225639434562211 ] } },
{ "type": "Feature", "properties": { "OBJECTID": 124, "objectid_1": 0.0, "nom_barrag": "Agherghis", "nom_oued": "Assif Neffella", "capacite_i": 0.30000001191999998, "hauteur": 24.0, "annee_mise": 1992.0, "id_pays": 248.0 }, "geometry": { "type": "Point", "coordinates": [ -9.729492871217804, 29.231426193464081 ] } },
{ "type": "Feature", "properties": { "OBJECTID": 125, "objectid_1": 0.0, "nom_barrag": "Imin  El   Kheng", "nom_oued": "Berhil", "capacite_i": 12.0, "hauteur": 39.0, "annee_mise": 1993.0, "id_pays": 248.0 }, "geometry": { "type": "Point", "coordinates": [ -8.533748934503249, 30.669734103469384 ] } },
{ "type": "Feature", "properties": { "OBJECTID": 126, "objectid_1": 0.0, "nom_barrag": "Mokhtar  Soussi", "nom_oued": "Choukoukane", "capacite_i": 50.0, "hauteur": 60.0, "annee_mise": 2001.0, "id_pays": 248.0 }, "geometry": { "type": "Point", "coordinates": [ -7.981810013477098, 30.737150020875323 ] } },
{ "type": "Feature", "properties": { "OBJECTID": 127, "objectid_1": 0.0, "nom_barrag": "Moulay   Abdellah", "nom_oued": "Tamri", "capacite_i": 110.0, "hauteur": 70.0, "annee_mise": 2002.0, "id_pays": 248.0 }, "geometry": { "type": "Point", "coordinates": [ -9.687184738204547, 30.76440910141385 ] } },
{ "type": "Feature", "properties": { "OBJECTID": 128, "objectid_1": 0.0, "nom_barrag": "AHL SOUSS", "nom_oued": null, "capacite_i": 0.0, "hauteur": 49.0, "annee_mise": 2004.0, "id_pays": 248.0 }, "geometry": { "type": "Point", "coordinates": [ -9.129852312315496, 30.056211138739261 ] } },
{ "type": "Feature", "properties": { "OBJECTID": 129, "objectid_1": 0.0, "nom_barrag": "TOUIZGUI RAMZ", "nom_oued": null, "capacite_i": 0.0, "hauteur": 18.0, "annee_mise": 0.0, "id_pays": 248.0 }, "geometry": { "type": "Point", "coordinates": [ -9.218901845587888, 28.416371943442844 ] } },
{ "type": "Feature", "properties": { "OBJECTID": 130, "objectid_1": 0.0, "nom_barrag": "SIDI EL MAHJOUB", "nom_oued": "Ifrane", "capacite_i": 0.0, "hauteur": 22.0, "annee_mise": 0.0, "id_pays": 248.0 }, "geometry": { "type": "Point", "coordinates": [ -9.453480013221274, 29.457310020362591 ] } },
{ "type": "Feature", "properties": { "OBJECTID": 131, "objectid_1": 0.0, "nom_barrag": "Taghdout", "nom_oued": "Amra", "capacite_i": 3.0, "hauteur": 26.0, "annee_mise": 1956.0, "id_pays": 248.0 }, "geometry": { "type": "Point", "coordinates": [ -7.300631619799246, 30.622660213296061 ] } },
{ "type": "Feature", "properties": { "OBJECTID": 132, "objectid_1": 0.0, "nom_barrag": "Saquia  Al  Hamra", "nom_oued": "Saq.  Al  Hamra", "capacite_i": 110.0, "hauteur": 16.0, "annee_mise": 1995.0, "id_pays": 248.0 }, "geometry": { "type": "Point", "coordinates": [ -12.05640001416266, 27.639700019742005 ] } },
{ "type": "Feature", "properties": { "OBJECTID": 133, "objectid_1": 0.0, "nom_barrag": "OUIN KARA", "nom_oued": null, "capacite_i": 0.0, "hauteur": 16.0, "annee_mise": 2005.0, "id_pays": 248.0 }, "geometry": { "type": "Point", "coordinates": [ -10.986757001954658, 28.312948458236448 ] } },
{ "type": "Feature", "properties": { "OBJECTID": 134, "objectid_1": 0.0, "nom_barrag": "KHENG MESSAOUED", "nom_oued": null, "capacite_i": 0.0, "hauteur": 24.0, "annee_mise": 2005.0, "id_pays": 248.0 }, "geometry": { "type": "Point", "coordinates": [ -11.087885022291593, 28.192214868701566 ] } },
{ "type": "Feature", "properties": { "OBJECTID": 135, "objectid_1": 0.0, "nom_barrag": "Aman  Seyernine", "nom_oued": "Dfali", "capacite_i": 0.30000001191999998, "hauteur": 16.0, "annee_mise": 1987.0, "id_pays": 248.0 }, "geometry": { "type": "Point", "coordinates": [ -5.428020011659481, 33.603970018689566 ] } }
]
}
